[{"id":"340000000003722030","name":"中钢集团安徽天源科技股份有限公司","lng":"118.55389701292339","lat":"31.649122876678902","count":52},{"id":"340200000027094338","name":"马鞍山长鑫投资管理有限公司","lng":"118.50600470804915","lat":"31.68440430562612","count":11},{"id":"340200000028427922","name":"马鞍山瀚源宏融投资管理有限公司","lng":"118.50600470804915","lat":"31.68440430562612","count":60},{"id":"340200000032171354","name":"马鞍山市味全食美电子商务有限责任公司","lng":"118.48420606722182","lat":"31.660483860881556","count":63},{"id":"340500000000011775","name":"马鞍山市丹阳建筑安装有限责任公司","lng":"118.7435278023163","lat":"31.633090211867476","count":73},{"id":"340500000000017847","name":"当涂县农副产品公司东街门市部","lng":"118.50460469891183","lat":"31.576649154711316","count":52},{"id":"340500000000017966","name":"当涂县肉厂综合物资经营部","lng":"118.50460469891183","lat":"31.576649154711316","count":48},{"id":"340500000000018003","name":"当涂县水利机械化工程公司","lng":"118.50692331526365","lat":"31.574196423200785","count":48},{"id":"340500000000025915","name":"当涂县恒宇金属材料有限责任公司","lng":"118.49005709033051","lat":"31.561417877099398","count":25},{"id":"340500000000054300","name":"当涂县顺昌工贸实业公司","lng":"118.49962778994573","lat":"31.59703306741146","count":93},{"id":"340500000000054306","name":"当涂县肉类加工厂生活服务公司","lng":"118.50460469891183","lat":"31.576649154711316","count":29},{"id":"340500000000054324","name":"当涂县肉厂机修分厂肉类经营部","lng":"118.50460469891183","lat":"31.576649154711316","count":93},{"id":"340500000000054330","name":"当涂县肉厂畜产品加工厂","lng":"118.49436386787768","lat":"31.57375687922995","count":23},{"id":"340500000000054342","name":"当涂县群益综合商店第二门市部","lng":"118.50460469891183","lat":"31.576649154711316","count":45},{"id":"340500000000054358","name":"当涂县燃料公司综合服务站经营部","lng":"118.4911652400076","lat":"31.559992972251894","count":72},{"id":"340500000000054364","name":"当涂县燃料公司煤基厂","lng":"118.50460469891183","lat":"31.576649154711316","count":56},{"id":"340500000000054374","name":"当涂县瑞发果品批发部","lng":"118.50460469891183","lat":"31.576649154711316","count":51},{"id":"340500000000058142","name":"当涂县藏汉乡建筑安装公司","lng":"118.56919313457091","lat":"31.566204731805126","count":32},{"id":"340500000000058164","name":"当涂县藏汉正山农机修配厂","lng":"118.50460469891183","lat":"31.576649154711316","count":63},{"id":"340500000000058172","name":"当涂县藏汉供销经理部","lng":"118.49675404953454","lat":"31.55713818633351","count":63},{"id":"340500000000058890","name":"安徽省当涂县富豪家用制品公司","lng":"118.50460469891183","lat":"31.576649154711316","count":53},{"id":"340500000000058902","name":"安徽省当涂县光明金属工艺厂","lng":"118.4622469890304","lat":"31.514504318650317","count":0},{"id":"340500000000058956","name":"安徽省当涂县车船蓬布厂","lng":"118.50460469891183","lat":"31.576649154711316","count":1},{"id":"340500000000074625","name":"马鞍山市众德重工科技发展有限公司","lng":"118.8515580445056","lat":"31.556645467064804","count":12},{"id":"340500000000092409","name":"马鞍山市永新工矿机械厂","lng":"118.74846887607899","lat":"31.582842539689764","count":7},{"id":"340500000000177712","name":"马鞍山市百盛通信设备有限公司","lng":"118.49960562874881","lat":"31.725472572000722","count":97},{"id":"340500000000177718","name":"马鞍山市百思特装饰工程有限公司","lng":"118.51440548151736","lat":"31.683993358321246","count":89},{"id":"340500000000177724","name":"马鞍山市百信房地产经纪有限公司","lng":"118.52949602594893","lat":"31.710675916392553","count":26},{"id":"340500000000177745","name":"马鞍山市邦泰工业炉有限公司","lng":"118.52083537269667","lat":"31.721275739190574","count":34},{"id":"340500000000177820","name":"马鞍山锐生工贸有限公司","lng":"118.5394187679003","lat":"31.737282953558275","count":59},{"id":"340500000000177874","name":"马鞍山市博源工程咨询有限公司","lng":"118.5236763321432","lat":"31.70635402411753","count":81},{"id":"340500000000177892","name":"马鞍山市诚欣实业有限公司","lng":"118.51178882805836","lat":"31.682976805358614","count":98},{"id":"340500000000178030","name":"马鞍山恒瑞测量设备有限公司","lng":"118.56667407661575","lat":"31.7240725228878","count":0},{"id":"340500000000178033","name":"马鞍山恒瑞食品贸易有限责任公司","lng":"118.5273417096749","lat":"31.707551994294246","count":29},{"id":"340500000000178036","name":"马鞍山恒盛装饰有限责任公司","lng":"118.53041228529226","lat":"31.699905907430605","count":19},{"id":"340500000000178075","name":"马鞍山吉祥装饰有限公司","lng":"118.52963377121752","lat":"31.67575182553844","count":38},{"id":"340500000000178222","name":"马鞍山市保信商贸有限公司","lng":"118.53541127790157","lat":"31.676675461801814","count":21},{"id":"340500000000178336","name":"马鞍山市博琳物资有限公司","lng":"118.52555928110233","lat":"31.706897890211227","count":92},{"id":"340500000000178339","name":"马鞍山博龙机电科技有限公司","lng":"118.51303897917558","lat":"31.705882126532853","count":65},{"id":"340500000000178507","name":"马鞍山市晨博物资贸易有限责任公司","lng":"118.49649593042932","lat":"31.689513970077808","count":26},{"id":"340500000000178516","name":"马鞍山市晨光高耐磨科技发展有限公司","lng":"118.61656073919677","lat":"31.65615905166647","count":84},{"id":"340500000000178540","name":"安徽神州网络技术有限公司","lng":"118.49536061648966","lat":"31.725517206940257","count":83},{"id":"340500000000178552","name":"马鞍山市城鑫劳务有限公司","lng":"118.48519519141884","lat":"31.730948229133826","count":56},{"id":"340500000000178669","name":"马鞍山市弗兰德衡顺金属结构有限公司","lng":"118.49960562874881","lat":"31.725472572000722","count":70},{"id":"340500000000178675","name":"马鞍山市弗思特机械有限公司","lng":"118.6046599428853","lat":"31.669054685237285","count":4},{"id":"340500000000178684","name":"马鞍山市福达岩土工程有限公司","lng":"118.50559705700871","lat":"31.687745482903562","count":54},{"id":"340500000000178687","name":"马鞍山市福康粮油有限责任公司","lng":"118.49560505832969","lat":"31.694349808449857","count":19},{"id":"340500000000179029","name":"马鞍山市华亮电子科技有限公司","lng":"118.52565648853816","lat":"31.710977459066637","count":65},{"id":"340500000000179050","name":"马鞍山市华敏自动化仪表有限公司","lng":"118.50528363821627","lat":"31.685506266123905","count":66},{"id":"340500000000179128","name":"马鞍山市徽润超市连锁有限责任公司","lng":"118.52591681747496","lat":"31.744706470079485","count":15},{"id":"340500000000179185","name":"马鞍山市华庭商贸有限公司","lng":"118.49802550935676","lat":"31.699556122086868","count":20},{"id":"340500000000179188","name":"马鞍山市华庭装饰有限公司","lng":"118.51240130173814","lat":"31.70881528695154","count":13},{"id":"340500000000179191","name":"马鞍山市华霆电器有限责任公司","lng":"118.59570383695083","lat":"31.70902000592911","count":56},{"id":"340500000000179194","name":"安徽省志健医疗器械贸易有限公司","lng":"118.5067780610593","lat":"31.67861260490971","count":95},{"id":"340500000000179209","name":"马鞍山市华雯轮胎有限责任公司","lng":"118.48737079753347","lat":"31.68670676964244","count":79},{"id":"340500000000179380","name":"马鞍山市环程土石方有限公司","lng":"118.51568907026055","lat":"31.710129466168645","count":78},{"id":"340500000000179512","name":"马鞍山市汇元物资有限公司","lng":"118.49649593042932","lat":"31.689513970077808","count":29},{"id":"340500000000179524","name":"马鞍山市惠安物业有限责任公司","lng":"118.52415861682015","lat":"31.7604947998074","count":21},{"id":"340500000000179716","name":"马鞍山市吉利机械设备有限公司","lng":"118.5394187679003","lat":"31.737282953558275","count":65},{"id":"340500000000179749","name":"马鞍山市吉鑫商贸有限公司","lng":"118.52664561273521","lat":"31.67023419829227","count":97},{"id":"340500000000179767","name":"马鞍山市佳达物业管理有限公司","lng":"118.52249824848384","lat":"31.680189724961192","count":64},{"id":"340500000000179971","name":"马鞍山市鼎力电器开发有限公司","lng":"118.52591681747496","lat":"31.744706470079485","count":78},{"id":"340500000000179974","name":"马鞍山市鼎力机械制造有限公司","lng":"118.49960562874881","lat":"31.725472572000722","count":59},{"id":"340500000000179980","name":"马鞍山市鼎立液压成套设备有限公司","lng":"118.5948510755302","lat":"31.66769598300507","count":6},{"id":"340500000000179983","name":"马鞍山市鼎盛帆布制品有限公司","lng":"118.50996380992326","lat":"31.713392030254727","count":78},{"id":"340500000000179989","name":"马鞍山市东湖钢管租赁有限公司","lng":"118.53085147913292","lat":"31.716714260921616","count":53},{"id":"340500000000180136","name":"马鞍山市嘉德工业设备清洗有限公司","lng":"118.50559705700871","lat":"31.687745482903562","count":64},{"id":"340500000000180145","name":"马鞍山市嘉禾物流有限责任公司","lng":"118.46316780158493","lat":"31.662881448336776","count":49},{"id":"340500000000180148","name":"马鞍山市嘉和粮油商贸有限责任公司","lng":"118.50216157741636","lat":"31.698518233584345","count":24},{"id":"340500000000180289","name":"马鞍山市江花金属制品有限公司","lng":"118.50486978886784","lat":"31.72269477175698","count":87},{"id":"340500000000180313","name":"马鞍山市江南液压设备有限公司","lng":"118.5394187679003","lat":"31.737282953558275","count":21},{"id":"340500000000180328","name":"马鞍山市江通铁路设备工程有限责任公司","lng":"118.48876146429346","lat":"31.727570378962177","count":52},{"id":"340500000000180361","name":"马鞍山市杰强机械有限责任公司","lng":"118.48388386409036","lat":"31.730414604942126","count":16},{"id":"340500000000180481","name":"马鞍山市金辉塑胶有限责任公司","lng":"118.48548064865567","lat":"31.723454685391452","count":25},{"id":"340500000000180622","name":"马鞍山市金企网络技术有限公司","lng":"118.51262324338556","lat":"31.703944187849668","count":77},{"id":"340500000000180631","name":"马鞍山市金桥带钢有限公司","lng":"118.52971622129044","lat":"31.731908946472227","count":14},{"id":"340500000000180643","name":"马鞍山市金泉建材有限公司","lng":"118.52438727268313","lat":"31.717823896964394","count":84},{"id":"340500000000180766","name":"马鞍山市金艺机电设备制造有限公司","lng":"118.5394187679003","lat":"31.737282953558275","count":21},{"id":"340500000000180946","name":"马鞍山市景丰金属贸易有限责任公司","lng":"118.4857900166619","lat":"31.727539505289567","count":78},{"id":"340500000000181099","name":"马鞍山市大鑫金属材料有限公司","lng":"118.51143280892374","lat":"31.724108253815125","count":10},{"id":"340500000000181114","name":"马鞍山市大洋建材有限责任公司","lng":"118.51824394096148","lat":"31.683847213284125","count":81},{"id":"340500000000181219","name":"马鞍山市聚和冶金材料有限公司","lng":"118.5394187679003","lat":"31.737282953558275","count":6},{"id":"340500000000181273","name":"马鞍山市君杰企业管理咨询有限公司","lng":"118.5203024080376","lat":"31.704018455900176","count":6},{"id":"340500000000181408","name":"马鞍山市凡能冶金机械修造有限责任公司","lng":"118.52572511907914","lat":"31.69749177774342","count":58},{"id":"340500000000181612","name":"马鞍山市恪信物业发展有限责任公司","lng":"118.5327869798627","lat":"31.71256436235245","count":13},{"id":"340500000000181810","name":"马鞍山市立新门窗有限公司","lng":"118.55237173508272","lat":"31.728818398170105","count":21},{"id":"340500000000182062","name":"马鞍山市龙洋防腐绝热材料有限公司","lng":"118.49511284357122","lat":"31.696632523079145","count":76},{"id":"340500000000182083","name":"马鞍山市隆晖机电设备有限责任公司","lng":"118.51621008745636","lat":"31.739937105318305","count":43},{"id":"340500000000182275","name":"马鞍山市东航船务有限公司","lng":"118.48690870917913","lat":"31.735380163067333","count":46},{"id":"340500000000182281","name":"马鞍山成功财务咨询有限公司","lng":"118.52105707449653","lat":"31.752803112700235","count":76},{"id":"340500000000182284","name":"马鞍山华安冶金材料有限公司","lng":"118.494716151858","lat":"31.672747451058655","count":95},{"id":"340500000000182290","name":"马鞍山华东电焊机有限责任公司","lng":"118.51143280892374","lat":"31.724108253815125","count":16},{"id":"340500000000182305","name":"安徽工联实业有限公司","lng":"118.51146216105627","lat":"31.714281556129997","count":76},{"id":"340500000000182383","name":"马鞍山中金金属材料有限公司","lng":"118.49235653908849","lat":"31.727115798798085","count":40},{"id":"340500000000182410","name":"马鞍山市闽旺糖酒食品有限责任公司","lng":"118.51022368970732","lat":"31.71376993602071","count":53},{"id":"340500000000182413","name":"马鞍山市名大不锈钢材料有限公司","lng":"118.50235633005092","lat":"31.703139523849785","count":30},{"id":"340500000000182419","name":"马鞍山市名豪服装有限责任公司","lng":"118.58463029826825","lat":"31.704000621973226","count":62},{"id":"340500000000182431","name":"马鞍山市明都置业有限责任公司","lng":"118.52219980893578","lat":"31.690177218216594","count":35},{"id":"340500000000182437","name":"马鞍山市奥瑞鑫机电设备有限责任公司","lng":"118.48449801651256","lat":"31.730060488289755","count":51},{"id":"340500000000182449","name":"马鞍山市明辉商贸有限责任公司","lng":"118.50600470804915","lat":"31.68440430562612","count":5},{"id":"340500000000182743","name":"马鞍山市奇源矿产品有限公司","lng":"118.51303897917558","lat":"31.705882126532853","count":36},{"id":"340500000000182773","name":"马鞍山华峰工程科技有限责任公司","lng":"118.50559705700871","lat":"31.687745482903562","count":95},{"id":"340500000000182941","name":"马鞍山市前锋糖酒有限公司","lng":"118.5108702922907","lat":"31.714060826867904","count":99},{"id":"340500000000182956","name":"马鞍山市潜川建材有限责任公司","lng":"118.51788231729878","lat":"31.7423347690313","count":76},{"id":"340500000000182968","name":"马鞍山市侨泰橡胶有限责任公司","lng":"118.49693137324562","lat":"31.7000535947175","count":86},{"id":"340500000000183484","name":"马鞍山市恒辉门窗工程有限公司","lng":"118.49027370861948","lat":"31.660080826692898","count":21},{"id":"340500000000183625","name":"马鞍山市赛尔仪器仪表制造有限公司","lng":"118.49960562874881","lat":"31.725472572000722","count":97},{"id":"340500000000183628","name":"马鞍山市华开液压机械有限公司","lng":"118.49960562874881","lat":"31.725472572000722","count":57},{"id":"340500000000183634","name":"马鞍山市三德金属材料贸易有限公司","lng":"118.50559705700871","lat":"31.687745482903562","count":92},{"id":"340500000000183640","name":"马鞍山市三方广告有限责任公司","lng":"118.49588451046192","lat":"31.689972604499026","count":87},{"id":"340500000000183649","name":"马鞍山市三江计算机网络系统集成有限公司","lng":"118.50647928285007","lat":"31.68982456412595","count":72},{"id":"340500000000183658","name":"马鞍山市三金模具材料有限公司","lng":"118.52504303570541","lat":"31.67323976765712","count":46},{"id":"340500000000184183","name":"马鞍山市世纪联华百货有限公司","lng":"118.53374466696012","lat":"31.68686880476766","count":75},{"id":"340500000000184372","name":"马鞍山市广播电视发展有限公司","lng":"118.51880071071658","lat":"31.679113098065063","count":81},{"id":"340500000000184831","name":"马鞍山海德门窗有限公司","lng":"118.52128938438618","lat":"31.651089427778942","count":78},{"id":"340500000000184843","name":"马鞍山市海宏炉料物贸有限责任公司","lng":"118.55237173508272","lat":"31.728818398170105","count":4},{"id":"340500000000184855","name":"马鞍山市海力金属材料有限公司","lng":"118.51146216105627","lat":"31.714281556129997","count":57},{"id":"340500000000185035","name":"马鞍山市天城机电设备有限公司","lng":"118.53482401786087","lat":"31.670085077238074","count":23},{"id":"340500000000185041","name":"马鞍山市天创科技发展有限公司","lng":"118.51247884077483","lat":"31.70387360626515","count":87},{"id":"340500000000185044","name":"马鞍山市天达机电设备有限责任公司","lng":"118.49486715701424","lat":"31.696396720134725","count":99},{"id":"340500000000185284","name":"马鞍山市天鑫物资有限公司","lng":"118.50591058269951","lat":"31.703518852415666","count":2},{"id":"340500000000185287","name":"马鞍山市天信机械服务有限责任公司","lng":"118.49272020684539","lat":"31.72535985219883","count":5},{"id":"340500000000185296","name":"马鞍山市天一广告有限公司","lng":"118.50202701304757","lat":"31.69031583901772","count":97},{"id":"340500000000185311","name":"马鞍山市天翼金属材料有限公司","lng":"118.49399728287365","lat":"31.70166808460286","count":93},{"id":"340500000000185317","name":"马鞍山市天宇时装有限公司","lng":"118.46914579568593","lat":"31.699499362262408","count":59},{"id":"340500000000185320","name":"马鞍山市天宇汽配有限公司","lng":"118.5135795794315","lat":"31.676265597609103","count":10},{"id":"340500000000185434","name":"马鞍山市同力精密机械制造有限公司","lng":"118.52591681747496","lat":"31.744706470079485","count":37},{"id":"340500000000185476","name":"马鞍山市拓力五金机电有限责任公司","lng":"118.51440548151736","lat":"31.683993358321246","count":71},{"id":"340500000000185482","name":"安徽省拓展建材科技有限公司","lng":"118.51366096591067","lat":"31.725949940362824","count":34},{"id":"340500000000185485","name":"马鞍山市瓦哈洛轴承有限公司","lng":"118.51128660825121","lat":"31.71454839388259","count":13},{"id":"340500000000185494","name":"马鞍山市外贸五金机电建材有限责任公司","lng":"118.51655944801367","lat":"31.690067783732587","count":89},{"id":"340500000000185641","name":"马鞍山市万顺汽车贸易有限责任公司","lng":"118.51197054717828","lat":"31.713103469318817","count":58},{"id":"340500000000185644","name":"马鞍山市万泰磁业有限公司","lng":"118.51147413097719","lat":"31.726381082406593","count":58},{"id":"340500000000185674","name":"马鞍山市万源物资贸易有限责任公司","lng":"118.49649593042932","lat":"31.689513970077808","count":96},{"id":"340500000000185821","name":"马鞍山市伟达网络科技有限责任公司","lng":"118.52822573212727","lat":"31.68158908033556","count":68},{"id":"340500000000186004","name":"马鞍山市小九华风景旅游开发有限公司","lng":"118.5150395055463","lat":"31.685068248970456","count":11},{"id":"340500000000186118","name":"马鞍山市欣宇工贸发展有限公司","lng":"118.50510436080305","lat":"31.687277152107114","count":10},{"id":"340500000000186127","name":"马鞍山市新潮科技贸易有限公司","lng":"118.52971252296666","lat":"31.68518547053899","count":77},{"id":"340500000000186130","name":"马鞍山市新辰矿山工程技术服务有限责任公司","lng":"118.52989244817047","lat":"31.70288952896995","count":43},{"id":"340500000000186151","name":"马鞍山市新达盛金属材料有限公司","lng":"118.49960562874881","lat":"31.725472572000722","count":71},{"id":"340500000000186289","name":"马鞍山市新思维电控设备有限公司","lng":"118.49443436869072","lat":"31.70833892494509","count":78},{"id":"340500000000186301","name":"马鞍山市新天燃料有限公司","lng":"118.49960562874881","lat":"31.725472572000722","count":17},{"id":"340500000000186466","name":"马鞍山市鑫绿水处理药剂有限责任公司","lng":"118.48449801651256","lat":"31.730060488289755","count":61},{"id":"340500000000186532","name":"马鞍山市鑫泰物资有限公司","lng":"118.50717340800915","lat":"31.721879504292342","count":81},{"id":"340500000000186598","name":"马鞍山市鑫源物业管理有限公司","lng":"118.52105707449653","lat":"31.752803112700235","count":62},{"id":"340500000000186601","name":"马鞍山市鑫众工贸有限公司","lng":"118.51858870522638","lat":"31.707236922070486","count":97},{"id":"340500000000186604","name":"马鞍山市信安建材有限公司","lng":"118.50136095544414","lat":"31.685269390516677","count":45},{"id":"340500000000186625","name":"马鞍山市信联物资有限公司","lng":"118.51143280892374","lat":"31.724108253815125","count":0},{"id":"340500000000187135","name":"马鞍山市永翔副食有限责任公司","lng":"118.53905219996406","lat":"31.68158228165457","count":37},{"id":"340500000000187141","name":"马鞍山市永信磁业有限公司","lng":"118.52788922688322","lat":"31.707459681190663","count":30},{"id":"340500000000187147","name":"马鞍山市永信金属材料有限公司","lng":"118.49960562874881","lat":"31.725472572000722","count":60},{"id":"340500000000187174","name":"马鞍山市艺恒装饰有限责任公司","lng":"118.49832554339709","lat":"31.726646677182806","count":35},{"id":"340500000000187279","name":"马鞍山市银诚帆布织造有限公司","lng":"118.47495323121467","lat":"31.655742434160565","count":26},{"id":"340500000000187282","name":"马鞍山市银丰贸易发展有限公司","lng":"118.49683688048901","lat":"31.69896044172737","count":20},{"id":"340500000000187294","name":"马鞍山市银峰建筑安装工程有限公司","lng":"118.5294134941302","lat":"31.728127949726748","count":84},{"id":"340500000000187603","name":"马鞍山市雨晨运输有限公司","lng":"118.48200682478372","lat":"31.734912854974212","count":81},{"id":"340500000000187672","name":"马鞍山市玉富物资有限责任公司","lng":"118.49670520147752","lat":"31.699245352248013","count":47},{"id":"340500000000187675","name":"马鞍山市玉江机械化工有限公司","lng":"118.6046599428853","lat":"31.669054685237285","count":49},{"id":"340500000000187687","name":"马鞍山市玉龙金属制品（集团）有限公司","lng":"118.51606357382768","lat":"31.734787755464637","count":96},{"id":"340500000000189499","name":"马鞍山华盈建设投资有限公司","lng":"118.57519994361775","lat":"31.703592169376257","count":29},{"id":"340500000000189811","name":"马鞍山久章钢材贸易有限公司","lng":"118.52105707449653","lat":"31.752803112700235","count":95},{"id":"340500000000240681","name":"马鞍山市金家庄区春娣鱼头饭店","lng":"118.51143280892374","lat":"31.724108253815125","count":49},{"id":"340500000000257208","name":"马鞍山市花山区红运来烟酒商店","lng":"118.49960562874881","lat":"31.725472572000722","count":9},{"id":"340500000000273732","name":"马鞍山市花山华平烟酒店","lng":"118.51191921171332","lat":"31.70782916344618","count":59},{"id":"340500000000279147","name":"马鞍山市金家庄华敏日用品商行","lng":"118.50309114395809","lat":"31.72267542146043","count":95},{"id":"340500000000287292","name":"马鞍山市金家庄区飞腾钢材经营部","lng":"118.50717340800915","lat":"31.721879504292342","count":52},{"id":"340500000000457602","name":"马鞍山市德润建材有限公司","lng":"118.51437453489254","lat":"31.694081287416587","count":47},{"id":"340500000000459651","name":"马鞍山市花山区利鑫商店","lng":"118.50827798742233","lat":"31.721762724829095","count":86},{"id":"340500000000569629","name":"安徽博美机床股份有限公司","lng":"118.8515580445056","lat":"31.556645467064804","count":55},{"id":"340500000000632673","name":"马鞍山市花山区吴连修蔬菜经营部","lng":"118.50875309262133","lat":"31.710331645450758","count":1},{"id":"340500000000632683","name":"马鞍山市益家烟酒商店","lng":"118.50422848227612","lat":"31.620888547841645","count":74},{"id":"340500000000632708","name":"马鞍山市汇翠烟酒商店","lng":"118.50683606195115","lat":"31.68933343985355","count":80},{"id":"340500000000633752","name":"马鞍山市顺兴装饰工程有限公司","lng":"118.53038211450396","lat":"31.69992271751027","count":87},{"id":"340500000000657488","name":"马鞍山市大华贸易商行","lng":"118.50841495156295","lat":"31.703060109267373","count":60},{"id":"340500000000662999","name":"安徽敦厚堂文化发展有限公司","lng":"118.50559705700871","lat":"31.687745482903562","count":98},{"id":"340500000000663186","name":"马鞍山市百世强贸易有限公司","lng":"118.52407466236565","lat":"31.68338207085634","count":64},{"id":"340500000000684430","name":"马鞍山市指南图文图片工作室","lng":"118.51576773801814","lat":"31.700683839401147","count":73},{"id":"340500000000684725","name":"马鞍山市维克重工科技有限公司","lng":"118.50559705700871","lat":"31.687745482903562","count":48},{"id":"340500000000684969","name":"马鞍山市隆城建材五金商行","lng":"118.52005571268354","lat":"31.673622776162723","count":54},{"id":"340500000000685170","name":"马鞍山市静安鸿翔服饰团结广场店","lng":"118.5170303939972","lat":"31.684936116407563","count":87},{"id":"340500000000688899","name":"马鞍山市宏庆烟酒商店","lng":"118.57519994361775","lat":"31.703592169376257","count":21},{"id":"340500000000689104","name":"马鞍山市花山区敏娣服装店","lng":"118.51289525029397","lat":"31.702536923667978","count":56},{"id":"340500000000689260","name":"马鞍山新华书店有限公司湖南路门市部","lng":"118.51555764816445","lat":"31.69034649067525","count":5},{"id":"340500000000689606","name":"马鞍山市丰盛园酒楼","lng":"118.49820751144291","lat":"31.697811293538535","count":81},{"id":"340500000000689616","name":"马鞍山市山水美肤中心","lng":"118.50758786910365","lat":"31.68971864803477","count":93},{"id":"340500000000690819","name":"马鞍山市粮全其美食品店","lng":"118.5121396963092","lat":"31.710224195934426","count":26},{"id":"340500000000691086","name":"马鞍山市集美百货有限责任公司第七分店","lng":"118.51633701892321","lat":"31.689760843128276","count":21},{"id":"340500000000691141","name":"马鞍山市安顺汽车配件经营部","lng":"118.53911353895921","lat":"31.76059538852307","count":6},{"id":"340500000000691410","name":"马鞍山市大美电器有限公司","lng":"118.50682881621891","lat":"31.70912766689758","count":91},{"id":"340500000000691561","name":"马鞍山市金韩涂料制造有限公司装饰工程分公司","lng":"118.51900238030358","lat":"31.752072415314146","count":43},{"id":"340500000000692033","name":"马鞍山市洪东货物装卸服务中心","lng":"118.52136222887827","lat":"31.742603681007175","count":20},{"id":"340500000000692047","name":"马鞍山市宏一佳门窗店","lng":"118.52030433939444","lat":"31.67668049386256","count":94},{"id":"340500000000693265","name":"马鞍山市马向停车场","lng":"118.49960562874881","lat":"31.725472572000722","count":34},{"id":"340500000000693625","name":"马鞍山市杨道玉小吃部","lng":"118.51030920839186","lat":"31.711924088510337","count":65},{"id":"340500000000693694","name":"马鞍山市昌盛包装制品有限公司","lng":"118.46635525094123","lat":"31.691777210725775","count":59},{"id":"340500000000694274","name":"马鞍山市宜家居精品卫浴","lng":"118.53906558202125","lat":"31.694569884831402","count":83},{"id":"340500000000698155","name":"马鞍山市大宋超市","lng":"118.53265949773456","lat":"31.6811549571187","count":17},{"id":"340500000000699623","name":"马鞍山市英姿勃发健身俱乐部","lng":"118.51302653944087","lat":"31.705728814208552","count":61},{"id":"340500000000700635","name":"马鞍山市花山区赵记水产商行","lng":"118.51793875783397","lat":"31.685745485215243","count":41},{"id":"340500000000728105","name":"马鞍山市安然工矿设备有限公司","lng":"118.49851315180793","lat":"31.7322812475459","count":22},{"id":"340500000002931365","name":"马鞍山市富荣宾馆","lng":"118.52244935012169","lat":"31.70312432679182","count":36},{"id":"340500000002932274","name":"马鞍山市乡土园艺有限责任公司","lng":"118.52277840751476","lat":"31.71193921729984","count":26},{"id":"340500000002946664","name":"马鞍山市咏辰威特斯洗衣店","lng":"118.5132350792684","lat":"31.684417441656873","count":24},{"id":"340500000002946711","name":"马鞍山市恒林富邦家具经营部","lng":"118.50559705700871","lat":"31.687745482903562","count":50},{"id":"340500000002975071","name":"马鞍山市青草地酒店","lng":"118.50639151840173","lat":"31.67295012478398","count":23},{"id":"340500000003341572","name":"马鞍山市兴旺饲料有限公司","lng":"118.66523595056026","lat":"31.610816072443164","count":29},{"id":"340500000003362280","name":"马鞍山市福康建材有限公司","lng":"118.66523595056026","lat":"31.610816072443164","count":92},{"id":"340500000003399768","name":"马鞍山市正萍劳保用品经营部","lng":"118.51692010813143","lat":"31.683462654741945","count":79},{"id":"340500000003399877","name":"马鞍山海狮码头装卸有限公司","lng":"118.46770671025894","lat":"31.662294935504992","count":81},{"id":"340500000003400039","name":"马鞍山市婴大喜母婴护理用品店","lng":"118.49960562874881","lat":"31.725472572000722","count":38},{"id":"340500000003400124","name":"马鞍山市利洁建材经营部","lng":"118.52197159801419","lat":"31.703947938810074","count":59},{"id":"340500000003400152","name":"马鞍山市花山区阿彬固城湖螃蟹店","lng":"118.51793875783397","lat":"31.685745485215243","count":91},{"id":"340500000003400308","name":"马鞍山市收藏家乐园瓷画苑","lng":"118.500567843306","lat":"31.724236762503818","count":84},{"id":"340500000003400343","name":"马鞍山市鑫钰矿产品物资有限公司","lng":"118.49148871982176","lat":"31.725107172752963","count":4},{"id":"340500000003404536","name":"马鞍山市广发建材商店","lng":"118.52070880145031","lat":"31.673813595896725","count":53},{"id":"340500000003406368","name":"马鞍山市仕香日用品商店","lng":"118.52080752522586","lat":"31.689382265926","count":60},{"id":"340500000003410419","name":"马鞍山市洋洋宾馆","lng":"118.51090552922022","lat":"31.714117567134842","count":91},{"id":"340500000003511422","name":"马鞍山市雨山区采石光明砂场","lng":"118.46107434820412","lat":"31.689046672551697","count":96},{"id":"340500000003561889","name":"马鞍山市高远百货商行","lng":"118.50374403240274","lat":"31.690276922830645","count":45},{"id":"340500000003568296","name":"马鞍山市华美印务有限公司","lng":"118.73281529351648","lat":"31.631800538762256","count":73},{"id":"340500000003610460","name":"马鞍山市华峰家电经营部","lng":"118.52278855836701","lat":"31.702342917211247","count":77},{"id":"340500000003847290","name":"马鞍山市苏华烟酒商店","lng":"118.5135795794315","lat":"31.676265597609103","count":45},{"id":"340500000003982770","name":"安徽省凯力重工机械制造有限公司","lng":"118.8515580445056","lat":"31.556645467064804","count":56},{"id":"340500000004064918","name":"马鞍山市大唐工贸有限公司","lng":"118.7287712065513","lat":"31.63123583283973","count":44},{"id":"340500000004113767","name":"马鞍山市新德西国际贸易有限公司","lng":"118.74846887607899","lat":"31.582842539689764","count":20},{"id":"340500000004405433","name":"马鞍山市花山区秀造型发型设计中心","lng":"118.51398660165805","lat":"31.70345879435523","count":95},{"id":"340500000004425766","name":"马鞍山市花山区睿夫子美容会所","lng":"118.51402370167561","lat":"31.683886365570736","count":0},{"id":"340500000004426062","name":"马鞍山市旭昇机械刃模厂","lng":"118.8515580445056","lat":"31.556645467064804","count":17},{"id":"340500000004437439","name":"马鞍山市花山区小胡配钥匙店","lng":"118.51080733227172","lat":"31.680261638938767","count":86},{"id":"340500000004484490","name":"马鞍山市宏鑫汽车维修有限公司","lng":"118.66523595056026","lat":"31.610816072443164","count":49},{"id":"340500000004595610","name":"马鞍山市花山区天足足浴中心","lng":"118.5295155191785","lat":"31.71067238373343","count":83},{"id":"340500000004625840","name":"马鞍山俊盛机械设备有限公司","lng":"118.8515580445056","lat":"31.556645467064804","count":83},{"id":"340500000004656122","name":"马鞍山市立志机械配件厂","lng":"118.74846887607899","lat":"31.582842539689764","count":91},{"id":"340500000005020996","name":"马鞍山市花山区依神健康干洗店","lng":"118.52754176231197","lat":"31.71014217613631","count":59},{"id":"340500000005517894","name":"安徽天峘重工机械制造有限公司","lng":"118.8515580445056","lat":"31.556645467064804","count":68},{"id":"340500000005725972","name":"马鞍山市光峰贸易有限公司","lng":"118.50569280110487","lat":"31.67272160098395","count":79},{"id":"340500000005726871","name":"马鞍山吉田机械模具有限公司","lng":"118.56385807748613","lat":"31.621299766859675","count":76},{"id":"340500000005728196","name":"马鞍山市花山区客来福衣柜店","lng":"118.53286098316892","lat":"31.678780515097994","count":31},{"id":"340500000005731219","name":"安徽马合金属有限公司","lng":"118.51366096591067","lat":"31.725949940362824","count":81},{"id":"340500000005732533","name":"马鞍山市德明建材经营部","lng":"118.50044204100915","lat":"31.6863787605757","count":24},{"id":"340500000005735718","name":"马鞍山市雨山区也是服饰店","lng":"118.50645432702468","lat":"31.684944268151124","count":25},{"id":"340500000005904106","name":"马鞍山市花山区如缤服装店","lng":"118.52202640632827","lat":"31.686584890674315","count":47},{"id":"340500000005904113","name":"马鞍山市花山区嘎嘎鸭下巴干锅店","lng":"118.5134647759873","lat":"31.682495566631943","count":3},{"id":"340500000006247307","name":"马鞍山市恒杰汽车配件贸易有限公司","lng":"119.61250060471407","lat":"32.01592027416992","count":65},{"id":"340500000009611051","name":"马鞍山市雨山区先强小吃部","lng":"118.50935947489144","lat":"31.67211092358493","count":78},{"id":"340500000009670230","name":"马鞍山市花山区鲍鲍饭小吃店","lng":"118.52398100593149","lat":"31.678580566485913","count":4},{"id":"340500000009682528","name":"马鞍山市花山区畅饮咖啡店","lng":"118.5004944301865","lat":"31.689833564157844","count":35},{"id":"340500000009965228","name":"马鞍山市花山区生态美化妆品美容中心","lng":"118.51956164555136","lat":"31.67269038388061","count":34},{"id":"340500000010953892","name":"马鞍山市花山区数字服装店","lng":"118.51306654048514","lat":"31.690034504287297","count":11},{"id":"340500000010955153","name":"马鞍山市金家庄区兴锐超市","lng":"118.52105707449653","lat":"31.752803112700235","count":36},{"id":"340500000010955302","name":"马鞍山市花山区潘军小百货批发部","lng":"118.52754176231197","lat":"31.71014217613631","count":87},{"id":"340500000010956653","name":"马鞍山市腾达工程准备有限公司","lng":"118.49399728287365","lat":"31.70166808460286","count":23},{"id":"340500000010956680","name":"马鞍山市佳悦摩托车销售有限公司","lng":"118.51030920839186","lat":"31.711924088510337","count":79},{"id":"340500000010957286","name":"马鞍山市雨山区尚桑子家纺经营部","lng":"118.5004375494816","lat":"31.690313255841076","count":75},{"id":"340500000010958298","name":"马鞍山市驰成计算机科技有限公司","lng":"118.50466551419487","lat":"31.65950124001189","count":86},{"id":"340500000010958352","name":"当涂县百隆电器商店","lng":"118.49852211436747","lat":"31.575142995800178","count":8},{"id":"340500000010959919","name":"马鞍山市金家庄区博诚文印社","lng":"118.52591681747496","lat":"31.744706470079485","count":2},{"id":"340500000010960266","name":"昌顺捷五富通林业发展有限公司马鞍山分公司","lng":"118.5128976649392","lat":"31.7077182677772","count":49},{"id":"340500000010961575","name":"马鞍山市花山区志丰白肉经营部","lng":"118.50875309262133","lat":"31.710331645450758","count":91},{"id":"340500000010961626","name":"马鞍山市花山区新千年图文店","lng":"118.51622201524675","lat":"31.699745571879458","count":9},{"id":"340500000010962532","name":"马鞍山市雨山区晨风标牌制作部","lng":"118.49633355092871","lat":"31.699585999707022","count":47},{"id":"340500000010962716","name":"马鞍山市花山区不孤单服饰店","lng":"118.51999999348767","lat":"31.676607202446842","count":10},{"id":"340500000010963712","name":"马鞍山市雨山区老鲁汽车零配件经营部","lng":"118.50559705700871","lat":"31.687745482903562","count":63},{"id":"340500000010964697","name":"马鞍山市花山区建国大闸蟹店","lng":"118.52399597080297","lat":"31.67729198322435","count":49},{"id":"340500000010964851","name":"当涂县大卫地板店","lng":"118.4944498042743","lat":"31.562936756539653","count":21},{"id":"340500000010965008","name":"马鞍山市雨山区至善家政服务部","lng":"118.50044186134807","lat":"31.68637791558596","count":98},{"id":"340500000010965034","name":"马鞍山康瑞商贸有限公司","lng":"118.53669046494778","lat":"31.68065492917359","count":73},{"id":"340500000010965628","name":"马鞍山市雨山区兰剑茶叶烟酒行","lng":"118.5351343213298","lat":"31.66653902723946","count":26},{"id":"340500000010965865","name":"马鞍山俊辉电子科技有限公司","lng":"118.51532902941217","lat":"31.710788884615916","count":17},{"id":"340500000010966784","name":"马鞍山市同心缘婚庆服务有限公司","lng":"118.53249097202766","lat":"31.69750823699646","count":17},{"id":"340500000010966859","name":"马鞍山市花山区小冯汽车维修服务中心","lng":"118.53296366487854","lat":"31.685999205766155","count":39},{"id":"340500000010967619","name":"马鞍山市雨山区秋心日用品经营部","lng":"118.50559705700871","lat":"31.687745482903562","count":56},{"id":"340500000010967675","name":"马鞍山市花山区蓉依坊服装店","lng":"118.51191921171332","lat":"31.70782916344618","count":18},{"id":"340500000010968930","name":"马鞍山市雨山区百花轩鲜花店","lng":"118.5153548107803","lat":"31.678656766410533","count":81},{"id":"340500000011030002","name":"马鞍山市雨山区路易汽车用品经营部","lng":"118.50660288968824","lat":"31.672721175660485","count":35},{"id":"340500000011030474","name":"马鞍山市雨山区方氏土菜馆","lng":"118.53500813725312","lat":"31.657997283487564","count":83},{"id":"340500000011031068","name":"马鞍山市雨山区明慧蔬菜经营部","lng":"118.50483468668173","lat":"31.68569597483812","count":99},{"id":"340500000011031083","name":"马鞍山市花山区优味鸭血粉丝汤","lng":"118.51526785480694","lat":"31.688100910341024","count":78},{"id":"340500000011031201","name":"马鞍山市雨山区和悦农家馆","lng":"118.50430924622961","lat":"31.677058051283414","count":8},{"id":"340500000011031557","name":"马鞍山市花山区奇毅办公用品店","lng":"118.52982123500117","lat":"31.697131259674762","count":13},{"id":"340500000011033163","name":"马鞍山市雨山区圣雪洗衣店","lng":"118.50559705700871","lat":"31.687745482903562","count":82},{"id":"340500000011034010","name":"马鞍山市品诚装饰工程有限公司","lng":"118.50647928285007","lat":"31.68982456412595","count":63},{"id":"340500000011034022","name":"马鞍山市梅景美容健身会所雨山西路店","lng":"118.50601162500158","lat":"31.681326428102107","count":11},{"id":"340500000011034739","name":"马鞍山市雨山区继芳五金建材部","lng":"118.51735573599866","lat":"31.669495786321214","count":75},{"id":"340500000011034915","name":"马鞍山市雨山区西凤烟酒商行","lng":"118.51698595392531","lat":"31.66989122523776","count":67},{"id":"340500000011035142","name":"马鞍山市雨山区月华园餐厅","lng":"118.55763715282946","lat":"31.66919390421478","count":22},{"id":"340500000011036879","name":"马鞍山华燕创业投资中心（有限合伙）","lng":"118.56385807748613","lat":"31.621299766859675","count":94},{"id":"340500000011037917","name":"安徽省消防工程有限公司马鞍山分公司","lng":"118.49490255025133","lat":"31.690351048301803","count":33},{"id":"340500000011041588","name":"马鞍山市花山区昱蓉汽车配件经营部","lng":"118.52399597080297","lat":"31.67729198322435","count":48},{"id":"340500000011042055","name":"马鞍山市花山区五星苹果服装店","lng":"118.51688767930253","lat":"31.69165833525753","count":9},{"id":"340500000011042101","name":"马鞍山市花山区宝莱国际服装店","lng":"118.51694379375282","lat":"31.688066093799243","count":32},{"id":"340500000011042146","name":"马鞍山市雨山区通林维修队","lng":"118.53120720811488","lat":"31.665655971161705","count":75},{"id":"340500000011042376","name":"马鞍山市雨山区春城服饰店","lng":"118.53234895441807","lat":"31.673960413605826","count":17},{"id":"340500000011042526","name":"马鞍山市雨山区安艳妮专业美容美体中心康泰佳苑店","lng":"118.50935947489144","lat":"31.67211092358493","count":75},{"id":"340500000011042569","name":"马鞍山市花山区伊贝小屋服饰店","lng":"118.52008528759583","lat":"31.676384293238034","count":52},{"id":"340500000011044544","name":"马鞍山市承奇劳动服务有限公司","lng":"118.50099869757774","lat":"31.69348169520178","count":18},{"id":"340500000011044778","name":"马鞍山市花山区杜鹃便利店","lng":"118.52102239990386","lat":"31.706744827493594","count":16},{"id":"340500000011045795","name":"马鞍山市雨山区棋盛百货店","lng":"118.49565128789389","lat":"31.66105592457949","count":23},{"id":"340500000011046980","name":"马鞍山市雨山区思味源卤菜店","lng":"118.50061812326199","lat":"31.693473805373905","count":74},{"id":"340500000011047034","name":"马鞍山市花山区书瀚食品经营部","lng":"118.51095175069746","lat":"31.714148530012015","count":29},{"id":"340500000011047994","name":"马鞍山市金点物业管理有限责任公司","lng":"118.52660698559828","lat":"31.67294321022149","count":82},{"id":"340500000011048111","name":"马鞍山市花山区宇欣不锈钢装饰中心","lng":"118.51639486889975","lat":"31.68482811451369","count":29},{"id":"340500000011048352","name":"马鞍山金鑫劳务有限公司","lng":"118.49103904784619","lat":"31.666581045881436","count":84},{"id":"340500000011048644","name":"马鞍山市雨山区千彩布艺店","lng":"118.51811674090129","lat":"31.672365150958296","count":96},{"id":"340500000011266963","name":"马鞍山市花山区鼎鑫轮胎经营部","lng":"118.49960562874881","lat":"31.725472572000722","count":62},{"id":"340500000011267414","name":"马鞍山市花山区欣鑫童装店","lng":"118.51633701892321","lat":"31.689760843128276","count":52},{"id":"340500000011267937","name":"马鞍山市金家庄区福顺烟酒店","lng":"118.49037922268637","lat":"31.7388238211929","count":98},{"id":"340500000011276810","name":"马鞍山市宏达保温材料有限公司","lng":"118.74846887607899","lat":"31.582842539689764","count":45},{"id":"340500000011572367","name":"马鞍山市新峘废旧金属回收有限公司","lng":"118.8515580445056","lat":"31.556645467064804","count":69},{"id":"340500000012748288","name":"马鞍山市花山区芳芳五金经营店","lng":"118.5269356459403","lat":"31.676049435419937","count":43},{"id":"340500000012877194","name":"南京中山园林建设（集团）有限公司马鞍山工程分公司","lng":"118.74846887607899","lat":"31.582842539689764","count":54},{"id":"340500000012998181","name":"马鞍山四通机动车驾驶培训有限责任公司新市镇分公司","lng":"118.74846887607899","lat":"31.582842539689764","count":54},{"id":"340500000013036041","name":"地球卫士（含山）环保新材料有限公司","lng":"118.17326248106389","lat":"31.711226735541782","count":84},{"id":"340500000013036210","name":"马鞍山市雨山区上音琴行","lng":"118.50465796842859","lat":"31.67874457585943","count":63},{"id":"340500000013036336","name":"马鞍山市金家庄区友联矿产品经营部","lng":"118.52591681747496","lat":"31.744706470079485","count":88},{"id":"340500000013036415","name":"含山县恒鑫运输有限公司","lng":"118.10648117026508","lat":"31.722125455454993","count":93},{"id":"340500000013036749","name":"和县历阳镇莱邦照明店","lng":"118.35983651377255","lat":"31.718673539057132","count":90},{"id":"340500000013036922","name":"和县世纪华联石跋河便利店","lng":"118.47749761779198","lat":"31.798499391178005","count":27},{"id":"340500000013059615","name":"和县成冠日用品经营部","lng":"118.3615694268471","lat":"31.729162204900476","count":10},{"id":"340500000013131156","name":"和县宁童服装店","lng":"118.36651394201819","lat":"31.7212072442065","count":27},{"id":"340500000013560535","name":"安徽大业建筑安装工程有限公司含山分公司","lng":"118.11867732044517","lat":"31.726154617679825","count":15},{"id":"340500000013560681","name":"含山县环峰恒瑞商行","lng":"118.11883826714848","lat":"31.73183948033504","count":85},{"id":"340500000013561357","name":"和县历阳镇王师傅调味品批发部","lng":"118.36637315598546","lat":"31.72646987875756","count":87},{"id":"340500000013561789","name":"马鞍山旭美贸易有限公司","lng":"118.52591681747496","lat":"31.744706470079485","count":29},{"id":"340500000013562124","name":"马鞍山南博发贸易有限公司","lng":"118.52591681747496","lat":"31.744706470079485","count":4},{"id":"340500000013562954","name":"马鞍山豪腾贸易有限公司","lng":"118.52591681747496","lat":"31.744706470079485","count":43},{"id":"340500000013564518","name":"和县银搏兴服装店","lng":"118.37719243827648","lat":"31.720882067565302","count":52},{"id":"340500000013597134","name":"含山县环峰飞炫手机经销店","lng":"118.11122111072918","lat":"31.725680834984637","count":37},{"id":"340500000013607998","name":"含山县环峰子琴鞋业经营部","lng":"118.11398028934038","lat":"31.732200014859625","count":17},{"id":"340500000013634895","name":"含山县莱斯二手车经纪有限公司","lng":"118.17326248106389","lat":"31.711226735541782","count":36},{"id":"340500000013646305","name":"河南天图园林景观有限公司马鞍山分公司","lng":"118.51402370167561","lat":"31.683886365570736","count":11},{"id":"340500000013651227","name":"含山县环峰星星文具店","lng":"118.11228507185994","lat":"31.727821565806245","count":23},{"id":"340500000013651738","name":"含山县环峰昊昊通讯经营部","lng":"118.11228507185994","lat":"31.727821565806245","count":65},{"id":"340500000013659730","name":"和县历阳镇朝凤旅社","lng":"118.37286846536523","lat":"31.72747486110443","count":85},{"id":"340500000013675525","name":"马鞍山市雨山区小爱服装加工店","lng":"118.53445849016242","lat":"31.66338502080767","count":57},{"id":"340500000013675711","name":"马鞍山市雨山区先锋摩托车维修部","lng":"118.53563100342932","lat":"31.66282042477408","count":17},{"id":"340500000013769310","name":"马鞍山市雨山区众多电器维修经营部","lng":"118.4949625570594","lat":"31.690230373540473","count":72},{"id":"340500000013770919","name":"和县冉冉烟酒经营部","lng":"118.37371541950495","lat":"31.71357436771104","count":87},{"id":"340500000013797458","name":"和县历阳镇绰庙食府饭店","lng":"118.36044395244993","lat":"31.729561687126697","count":43},{"id":"340500000013923977","name":"和县哈乐雪冰淇淋奶茶店","lng":"118.37719243827648","lat":"31.720882067565302","count":92},{"id":"340500000014000263","name":"和县茂昌眼镜店","lng":"118.37477586620035","lat":"31.70978563960314","count":16},{"id":"340500000014169705","name":"马鞍山市雨山区梦飞排挡","lng":"118.53793753757202","lat":"31.664026641421582","count":74},{"id":"340500000014322852","name":"马鞍山市雨山区怡然理发店","lng":"118.49921854890457","lat":"31.69663329116593","count":3},{"id":"340500000014495979","name":"马鞍山市恒阳矿业贸易有限公司","lng":"118.7288712988458","lat":"31.631418828065023","count":79},{"id":"340500000014563803","name":"和县理想茶叶礼品店","lng":"118.37495401635246","lat":"31.71917494713014","count":76},{"id":"340500000014614940","name":"马鞍山市林杨机电有限公司","lng":"118.74846887607899","lat":"31.582842539689764","count":25},{"id":"340500000014632537","name":"马鞍山市龙成投资有限公司","lng":"118.66523595056026","lat":"31.610816072443164","count":3},{"id":"340500000014803944","name":"含山县环峰慕丝美发店","lng":"118.17326248106389","lat":"31.711226735541782","count":55},{"id":"340500000014804988","name":"和县卓越精品文具店","lng":"118.37869798139313","lat":"31.72388299542372","count":78},{"id":"340500000014805973","name":"马鞍山市花山区天绎时尚服饰店","lng":"118.51694379375282","lat":"31.688066093799243","count":69},{"id":"340500000014806078","name":"和县恒易实验器材服务部","lng":"118.37399978891546","lat":"31.723839540261995","count":45},{"id":"340500000015220797","name":"马鞍山市昌皓汽车检测服务有限公司","lng":"118.66523595056026","lat":"31.610816072443164","count":8},{"id":"340500000015260832","name":"马鞍山华电机械有限公司","lng":"118.74846887607899","lat":"31.582842539689764","count":33},{"id":"340500000015264244","name":"马鞍山市博望区宝利来机械配件厂","lng":"118.66523595056026","lat":"31.610816072443164","count":0},{"id":"340500000015291079","name":"马鞍山市雨山区黄震建材店","lng":"118.50559705700871","lat":"31.687745482903562","count":14},{"id":"340500000015992943","name":"含山县环峰红宇纸品经营部","lng":"118.17326248106389","lat":"31.711226735541782","count":54},{"id":"340500000016267511","name":"和县历阳镇宝鸾日用百货店","lng":"118.36827706420874","lat":"31.72514762685005","count":45},{"id":"340500000016342085","name":"马鞍山市强鹏机械设备有限公司","lng":"118.74846887607899","lat":"31.582842539689764","count":58},{"id":"340500000016371755","name":"博望区丹阳中义矿石经营部","lng":"118.66523595056026","lat":"31.610816072443164","count":77},{"id":"340500000016646260","name":"含山县环峰余静服装店","lng":"118.11838646798546","lat":"31.72496012493529","count":77},{"id":"340500000016650459","name":"和县满口香煲仔饭","lng":"118.37594999012902","lat":"31.714413803997093","count":57},{"id":"340500000016659999","name":"马鞍山市雨山区翌宸休闲食品经营部","lng":"118.53464749364173","lat":"31.663161349603456","count":38},{"id":"340500000016755883","name":"马鞍山市华利汽车修理部","lng":"118.74846887607899","lat":"31.582842539689764","count":34},{"id":"340500000016809210","name":"马鞍山市雨山区华鑫消防器材经营部","lng":"118.50511695134077","lat":"31.687816105069796","count":54},{"id":"340500000016931285","name":"马鞍山市邦联建材商贸有限公司","lng":"118.66523595056026","lat":"31.610816072443164","count":13},{"id":"340500000017212897","name":"马鞍山市宏通物流有限公司","lng":"118.72619016461765","lat":"31.631606005122666","count":91},{"id":"340500000017777992","name":"马鞍山市花山区酷娜薇精品服饰店","lng":"118.51402370167561","lat":"31.683886365570736","count":20},{"id":"340500000018435192","name":"安徽亚联冲剪机床制造有限公司","lng":"118.74846887607899","lat":"31.582842539689764","count":17},{"id":"340500000018728624","name":"和县鲁记肥肠面","lng":"118.36798096474654","lat":"31.721311138484058","count":62},{"id":"340500000018779345","name":"马鞍山市博望区时空网吧","lng":"118.72094963352676","lat":"31.63212433130455","count":41},{"id":"340500000018872301","name":"马鞍山市绿鸣机械配件销售有限公司","lng":"118.74846887607899","lat":"31.582842539689764","count":67},{"id":"340500000019134785","name":"和县诚信保健食品经营部","lng":"118.36500694469466","lat":"31.717133082911023","count":58},{"id":"340500000019971272","name":"和县富康摄影店","lng":"118.36873887857989","lat":"31.73215299128475","count":53},{"id":"340500000020288364","name":"马鞍山市博爱机械设备科技有限公司","lng":"118.74535994940393","lat":"31.583288574253807","count":83},{"id":"340500000020312276","name":"含山县环峰华顺玩具厂","lng":"118.11745667327413","lat":"31.731846390465638","count":67},{"id":"340500000020344463","name":"马鞍山神舟砂业有限公司","lng":"118.66523595056026","lat":"31.610816072443164","count":69},{"id":"340500000020392404","name":"马鞍山小巨人金融信息服务有限公司","lng":"118.74500910091581","lat":"31.58215887115485","count":74},{"id":"340500000020619762","name":"和县傲美地板经营部","lng":"118.35327530739548","lat":"31.719731684514738","count":74},{"id":"340500000021080560","name":"马鞍山创之绿园林机械配件销售有限公司","lng":"118.74535994940393","lat":"31.583288574253807","count":42},{"id":"340500000021094059","name":"马鞍山博世机械科技有限公司","lng":"118.74846887607899","lat":"31.582842539689764","count":47},{"id":"340500000021203022","name":"马鞍山市新安上工医药科技有限公司","lng":"118.74846887607899","lat":"31.582842539689764","count":70},{"id":"340500000021544369","name":"马鞍山市花山区先锋快捷宾馆","lng":"118.53721274785605","lat":"31.682362368556685","count":50},{"id":"400000000213026370","name":"含山县环峰镇小琴琴鞋店","lng":"118.17326248106389","lat":"31.711226735541782","count":90},{"id":"","count":81}]